{ "lines": [{
                  "color": "#00b926ff",
                  "name": "green",
                  "stations": [{
                               "id": 0,
                               "name": "Chervonyi khutir",
                               "lat": 50.409500,
                               "lon": 30.696181,
                               "timePrev": -1.0,
                               "timeNext": 1.3
                               },
                               
                               {
                               "id": 1,
                               "name": "Boryspilska",
                               "lat": 50.403387,
                               "lon": 30.684186,
                               "timePrev": 1.3,
                               "timeNext": 2.0
                               },
                               
                               {
                               "id": 2,
                               "name": "Vyrlytsia",
                               "lat": 50.403111,
                               "lon": 30.666897,
                               "timePrev": 2.0,
                               "timeNext": 2.0
                               },
                               
                               {
                               "id": 3,
                               "name": "Kharkivksa",
                               "lat": 50.400724,
                               "lon": 30.652477,
                               "timePrev": 2.0,
                               "timeNext": 1.5
                               },
                               
                               {
                               "id": 4,
                               "name": "Pozniaky",
                               "lat": 50.397946,
                               "lon": 30.634562,
                               "timePrev": 1.5,
                               "timeNext": 2.0
                               },
                               
                               {
                               "id": 5,
                               "name": "Osokorky",
                               "lat": 50.395269,
                               "lon": 30.616162,
                               "timePrev": 2.0,
                               "timeNext": 1.15
                               },
                               
                               {
                               "id": 6,
                               "name": "Slavutych",
                               "lat": 50.394277,
                               "lon": 30.604843,
                               "timePrev": 1.15,
                               "timeNext": 4.5
                               },
                               
                               {
                               "id": 7,
                               "name": "Vydubychi",
                               "lat": 50.402108,
                               "lon": 30.560157,
                               "timePrev": 4.5,
                               "timeNext": 2.15
                               },
                               
                               {
                               "id": 8,
                               "name": "Druzhby narodiv",
                               "lat": 50.416822,
                               "lon": 30.546918,
                               "timePrev": 2.15,
                               "timeNext": 1.3
                               },
                               
                               {
                               "id": 9,
                               "name": "Pecherska",
                               "lat": 50.426488,
                               "lon": 30.540137,
                               "timePrev": 1.2,
                               "timeNext": 1.45
                               },
                               
                               {
                               "id": 10,
                               "name": "Klovska",
                               "lat": 50.435892,
                               "lon": 30.533410,
                               "timePrev": 1.45,
                               "timeNext": 1.3
                               },
                               
                               {
                               "id": 11,
                               "name": "Palats sportu",
                               "lat": 50.439620,
                               "lon": 30.519467,
                               "timePrev": 1.3,
                               "timeNext": 1.15
                               },
                               
                               {
                               "id": 12,
                               "name": "Zoloti vorota",
                               "lat": 50.448447,
                               "lon": 30.513472,
                               "timePrev": 1.15,
                               "timeNext": 4.3
                               },
                               
                               {
                               "id": 13,
                               "name": "Lukianivska",
                               "lat": 50.461183,
                               "lon": 30.483699,
                               "timePrev": 4.3,
                               "timeNext": 3.2
                               },
                               
                               {
                               "id": 14,
                               "name": "Dorohozhychi",
                               "lat": 50.473120,
                               "lon": 30.452253,
                               "timePrev": 3.2,
                               "timeNext": 2.0
                               },
                               
                               {
                               "id": 15,
                               "name": "Syrets",
                               "lat": 50.476213,
                               "lon": 30.430677,
                               "timePrev": 2.0,
                               "timeNext": -1.0
                               }
                               
                               ]
                  },
                  
                  {
                  "color": "#3084d3ff",
                  "name": "blue",
                  "stations": [{
                               "id": 16,
                               "name": "Teremky",
                               "lat": 50.367174,
                               "lon": 30.454398,
                               "timePrev": -1.0,
                               "timeNext": 2.0
                               },
                               
                               {
                               "id": 17,
                               "name": "Ipodrom",
                               "lat": 50.376672,
                               "lon": 30.469000,
                               "timePrev": 2.0,
                               "timeNext": 4.0
                               },
                               
                               {
                               "id": 18,
                               "name": "Vystavkovyj tsentr",
                               "lat": 50.382405,
                               "lon": 30.477690,
                               "timePrev": 4.0,
                               "timeNext": 3.0
                               },
                               
                               {
                               "id": 19,
                               "name": "Vasylkivska",
                               "lat": 50.393254,
                               "lon": 30.487657,
                               "timePrev": 3.0,
                               "timeNext": 2.0
                               },
                               
                               {
                               "id": 20,
                               "name": "Holosiivska",
                               "lat": 50.397460,
                               "lon": 30.508356,
                               "timePrev": 2.0,
                               "timeNext": 1.0
                               },
                               
                               {
                               "id": 21,
                               "name": "Demiivska",
                               "lat": 50.404794,
                               "lon": 30.516864,
                               "timePrev": 1.0,
                               "timeNext": 2.0
                               },
                               
                               {
                               "id": 22,
                               "name": "Lybidska",
                               "lat": 50.414435,
                               "lon": 30.524878,
                               "timePrev": 2.0,
                               "timeNext": 1.3
                               },
                               
                               {
                               "id": 23,
                               "name": "Palats Ukraina",
                               "lat": 50.421193,
                               "lon": 30.520613,
                               "timePrev": 1.3,
                               "timeNext": 1.45
                               },
                               
                               {
                               "id": 24,
                               "name": "Olimpiiska",
                               "lat": 50.432167,
                               "lon": 30.515849,
                               "timePrev": 1.45,
                               "timeNext": 1.4
                               },
                               
                               {
                               "id": 25,
                               "name": "Lva Tolstogo Square",
                               "lat": 50.440070,
                               "lon": 30.518022,
                               "timePrev": 1.4,
                               "timeNext": 1.3
                               },
                               
                               {
                               "id": 26,
                               "name": "Maidan Nezalaznosti",
                               "lat": 50.447968,
                               "lon": 30.525269,
                               "timePrev": 1.3,
                               "timeNext": 2.0
                               },
                               
                               {
                               "id": 27,
                               "name": "Poshtova plosha",
                               "lat": 50.458959,
                               "lon": 30.524765,
                               "timePrev": 2.0,
                               "timeNext": 2.15
                               },
                               
                               {
                               "id": 28,
                               "name": "Kontraktova plosha",
                               "lat": 50.466041,
                               "lon": 30.515002,
                               "timePrev": 2.15,
                               "timeNext": 1.3
                               },
                               
                               {
                               "id": 29,
                               "name": "Tarasa Shevchenka",
                               "lat": 50.474147,
                               "lon": 30.503485,
                               "timePrev": 1.3,
                               "timeNext": 2.3
                               },
                               
                               {
                               "id": 30,
                               "name": "Petrivka",
                               "lat": 50.486078,
                               "lon": 30.497847,
                               "timePrev": 2.3,
                               "timeNext": 2.15
                               },
                               
                               {
                               "id": 31,
                               "name": "Obolon",
                               "lat": 50.501466,
                               "lon": 30.498217,
                               "timePrev": 2.15,
                               "timeNext": 1.4
                               },
                               
                               {
                               "id": 32,
                               "name": "Minska",
                               "lat": 50.512240,
                               "lon": 30.498550,
                               "timePrev": 1.4,
                               "timeNext": 2.0
                               },
                               
                               {
                               "id": 33,
                               "name": "Heroiv Dnipra",
                               "lat": 50.522735,
                               "lon": 30.498963,
                               "timePrev": 2.0,
                               "timeNext": -1.0
                               }
                               ]
                  },
                  
                  {
                  "color": "#ee0000ff",
                  "name": "red",
                  "stations": [{
                               "id": 34,
                               "name": "Akademmistechko",
                               "lat": 50.464915,
                               "lon": 30.355283,
                               "timePrev": -1.0,
                               "timeNext": 2.1
                               },
                               
                               {
                               "id": 35,
                               "name": "Zhytomyrska",
                               "lat": 50.456104,
                               "lon": 30.364982,
                               "timePrev": 2.1,
                               "timeNext": 2.4
                               },
                               
                               {
                               "id": 36,
                               "name": "Sviatoshyn",
                               "lat": 50.457764,
                               "lon": 30.390592,
                               "timePrev": 2.4,
                               "timeNext": 1.2
                               },
                               
                               {
                               "id": 37,
                               "name": "Nyvky",
                               "lat": 50.458638,
                               "lon": 30.403906,
                               "timePrev": 1.2,
                               "timeNext": 1.4
                               },
                               
                               {
                               "id": 38,
                               "name": "Beresteiska",
                               "lat": 50.459260,
                               "lon": 30.418991,
                               "timePrev": 1.4,
                               "timeNext": 2.5
                               },
                               
                               {
                               "id": 39,
                               "name": "Shuliavska",
                               "lat": 50.454494,
                               "lon": 30.447240,
                               "timePrev": 2.5,
                               "timeNext": 1.4
                               },
                               
                               {
                               "id": 40,
                               "name": "Politekhnichnyi instytut",
                               "lat": 50.450945,
                               "lon": 30.465152,
                               "timePrev": 1.4,
                               "timeNext": 2.0
                               },
                               
                               {
                               "id": 41,
                               "name": "Vokzalna",
                               "lat": 50.441390,
                               "lon": 30.489050,
                               "timePrev": 2.0,
                               "timeNext": 1.4
                               },
                               
                               {
                               "id": 42,
                               "name": "University",
                               "lat": 50.44291,
                               "lon": 30.503705,
                               "timePrev": 1.4,
                               "timeNext": 1.5
                               },
                               
                               {
                               "id": 43,
                               "name": "Teatralna",
                               "lat": 50.444850,
                               "lon": 30.516071,
                               "timePrev": 1.5,
                               "timeNext": 1.3
                               },
                               
                               {
                               "id": 44,
                               "name": "Khreshchatyk",
                               "lat": 50.447060,
                               "lon": 30.525351,
                               "timePrev": 1.3,
                               "timeNext": 2.0
                               },
                               
                               {
                               "id": 45,
                               "name": "Arsenalna",
                               "lat": 50.443015,
                               "lon": 30.547737,
                               "timePrev": 2.0,
                               "timeNext": 1.4
                               },
                               
                               {
                               "id": 46,
                               "name": "Dnipro",
                               "lat": 50.441226,
                               "lon": 30.559350,
                               "timePrev": 1.4,
                               "timeNext": 2.2
                               },
                               
                               {
                               "id": 47,
                               "name": "Hidropark",
                               "lat": 50.445943,
                               "lon": 30.576887,
                               "timePrev": 2.2,
                               "timeNext": 2.2
                               },
                               
                               {
                               "id": 48,
                               "name": "Livoberezhna",
                               "lat": 50.451878,
                               "lon": 30.598162,
                               "timePrev": 2.2,
                               "timeNext": 1.5
                               },
                               
                               
                               {
                               "id": 49,
                               "name": "Darnytsia",
                               "lat": 50.455741,
                               "lon": 30.611905,
                               "timePrev": 1.5,
                               "timeNext": 2.0
                               },
                               
                               {
                               "id": 50,
                               "name": "Chernihivska",
                               "lat": 50.459912,
                               "lon": 30.630387,
                               "timePrev": 2.0,
                               "timeNext": 2.0
                               },
                               
                               {
                               "id": 51,
                               "name": "Lisova",
                               "lat": 50.464777,
                               "lon": 30.645612,
                               "timePrev": 2.0,
                               "timeNext": -1.0
                               }
                               ]
                  }
                  ]
}
